{
"type": "FeatureCollection",
"crs": { "type": "name", "properties": { "name": "urn:ogc:def:crs:OGC:1.3:CRS84" } },
                                                                                
"features": [
{ "type": "Feature", "properties": { "ID_GEOFLA": 1, "CODE_DEPT": "01", "NOM_DEPT": "AIN", "CODE_CHF": "053", "NOM_CHF": "BOURG-EN-BRESSE", "X_CHF_LIEU": 8717, "Y_CHF_LIEU": 65696, "X_CENTROID": 8814, "Y_CENTROID": 65582, "CODE_REG": "82", "NOM_REGION": "RHONE-ALPES" }, "geometry": { "type": "Point", "coordinates": [ 5.348550897350772, 46.099670346514216 ] } },
{ "type": "Feature", "properties": { "ID_GEOFLA": 2, "CODE_DEPT": "02", "NOM_DEPT": "AISNE", "CODE_CHF": "408", "NOM_CHF": "LAON", "X_CHF_LIEU": 7451, "Y_CHF_LIEU": 69406, "X_CENTROID": 7404, "Y_CENTROID": 69401, "CODE_REG": "22", "NOM_REGION": "PICARDIE" }, "geometry": { "type": "Point", "coordinates": [ 3.559474583826542, 49.56076594778348 ] } },
{ "type": "Feature", "properties": { "ID_GEOFLA": 3, "CODE_DEPT": "03", "NOM_DEPT": "ALLIER", "CODE_CHF": "190", "NOM_CHF": "MOULINS", "X_CHF_LIEU": 7254, "Y_CHF_LIEU": 66072, "X_CENTROID": 7144, "Y_CENTROID": 65882, "CODE_REG": "83", "NOM_REGION": "AUVERGNE" }, "geometry": { "type": "Point", "coordinates": [ 3.187774566298113, 46.393568427804034 ] } },
{ "type": "Feature", "properties": { "ID_GEOFLA": 4, "CODE_DEPT": "04", "NOM_DEPT": "ALPES-DE-HAUTE-PROVENCE", "CODE_CHF": "070", "NOM_CHF": "DIGNE-LES-BAINS", "X_CHF_LIEU": 9590, "Y_CHF_LIEU": 63379, "X_CENTROID": 9596, "Y_CENTROID": 63394, "CODE_REG": "93", "NOM_REGION": "PROVENCE-ALPES-COTE D'AZUR" }, "geometry": { "type": "Point", "coordinates": [ 6.244900388032585, 44.10630554528796 ] } },
{ "type": "Feature", "properties": { "ID_GEOFLA": 5, "CODE_DEPT": "05", "NOM_DEPT": "HAUTES-ALPES", "CODE_CHF": "061", "NOM_CHF": "GAP", "X_CHF_LIEU": 9443, "Y_CHF_LIEU": 63891, "X_CENTROID": 9585, "Y_CENTROID": 64014, "CODE_REG": "93", "NOM_REGION": "PROVENCE-ALPES-COTE D'AZUR" }, "geometry": { "type": "Point", "coordinates": [ 6.264705376311727, 44.663695646258105 ] } },
{ "type": "Feature", "properties": { "ID_GEOFLA": 6, "CODE_DEPT": "06", "NOM_DEPT": "ALPES-MARITIMES", "CODE_CHF": "088", "NOM_CHF": "NICE", "X_CHF_LIEU": 10439, "Y_CHF_LIEU": 62985, "X_CENTROID": 10303, "Y_CENTROID": 63240, "CODE_REG": "93", "NOM_REGION": "PROVENCE-ALPES-COTE D'AZUR" }, "geometry": { "type": "Point", "coordinates": [ 7.116471654888299, 43.937762728223817 ] } },
{ "type": "Feature", "properties": { "ID_GEOFLA": 7, "CODE_DEPT": "07", "NOM_DEPT": "ARDECHE", "CODE_CHF": "186", "NOM_CHF": "PRIVAS", "X_CHF_LIEU": 8266, "Y_CHF_LIEU": 64052, "X_CENTROID": 8127, "Y_CENTROID": 64068, "CODE_REG": "82", "NOM_REGION": "RHONE-ALPES" }, "geometry": { "type": "Point", "coordinates": [ 4.425655153553892, 44.752649880772907 ] } },
{ "type": "Feature", "properties": { "ID_GEOFLA": 8, "CODE_DEPT": "08", "NOM_DEPT": "ARDENNES", "CODE_CHF": "105", "NOM_CHF": "CHARLEVILLE-MEZIERES", "X_CHF_LIEU": 8239, "Y_CHF_LIEU": 69649, "X_CENTROID": 8186, "Y_CENTROID": 69475, "CODE_REG": "21", "NOM_REGION": "CHAMPAGNE-ARDENNE" }, "geometry": { "type": "Point", "coordinates": [ 4.640706403849145, 49.61611923019094 ] } },
{ "type": "Feature", "properties": { "ID_GEOFLA": 9, "CODE_DEPT": "09", "NOM_DEPT": "ARIEGE", "CODE_CHF": "122", "NOM_CHF": "FOIX", "X_CHF_LIEU": 5862, "Y_CHF_LIEU": 62083, "X_CENTROID": 5777, "Y_CENTROID": 62035, "CODE_REG": "73", "NOM_REGION": "MIDI-PYRENEES" }, "geometry": { "type": "Point", "coordinates": [ 1.503585693671279, 42.920971879662559 ] } },
{ "type": "Feature", "properties": { "ID_GEOFLA": 10, "CODE_DEPT": "10", "NOM_DEPT": "AUBE", "CODE_CHF": "387", "NOM_CHF": "TROYES", "X_CHF_LIEU": 7799, "Y_CHF_LIEU": 68003, "X_CENTROID": 7861, "Y_CENTROID": 68010, "CODE_REG": "21", "NOM_REGION": "CHAMPAGNE-ARDENNE" }, "geometry": { "type": "Point", "coordinates": [ 4.161277935714986, 48.30451777998146 ] } },
{ "type": "Feature", "properties": { "ID_GEOFLA": 11, "CODE_DEPT": "11", "NOM_DEPT": "AUDE", "CODE_CHF": "069", "NOM_CHF": "CARCASSONNE", "X_CHF_LIEU": 6472, "Y_CHF_LIEU": 62353, "X_CENTROID": 6522, "Y_CENTROID": 62228, "CODE_REG": "91", "NOM_REGION": "LANGUEDOC-ROUSSILLON" }, "geometry": { "type": "Point", "coordinates": [ 2.413908800853905, 43.103232904604333 ] } },
{ "type": "Feature", "properties": { "ID_GEOFLA": 12, "CODE_DEPT": "12", "NOM_DEPT": "AVEYRON", "CODE_CHF": "202", "NOM_CHF": "RODEZ", "X_CHF_LIEU": 6660, "Y_CHF_LIEU": 63613, "X_CENTROID": 6744, "Y_CENTROID": 63535, "CODE_REG": "73", "NOM_REGION": "MIDI-PYRENEES" }, "geometry": { "type": "Point", "coordinates": [ 2.67866847654371, 44.280890176176698 ] } },
{ "type": "Feature", "properties": { "ID_GEOFLA": 13, "CODE_DEPT": "13", "NOM_DEPT": "BOUCHES-DU-RHONE", "CODE_CHF": "201", "NOM_CHF": "MARSEILLE--1ER-ARRONDISSEMENT", "X_CHF_LIEU": 8934, "Y_CHF_LIEU": 62473, "X_CENTROID": 8686, "Y_CENTROID": 62740, "CODE_REG": "93", "NOM_REGION": "PROVENCE-ALPES-COTE D'AZUR" }, "geometry": { "type": "Point", "coordinates": [ 5.085176661942695, 43.545538593449081 ] } },
{ "type": "Feature", "properties": { "ID_GEOFLA": 14, "CODE_DEPT": "14", "NOM_DEPT": "CALVADOS", "CODE_CHF": "118", "NOM_CHF": "CAEN", "X_CHF_LIEU": 4543, "Y_CHF_LIEU": 69032, "X_CENTROID": 4544, "Y_CENTROID": 68940, "CODE_REG": "25", "NOM_REGION": "BASSE-NORMANDIE" }, "geometry": { "type": "Point", "coordinates": [ -0.363146974135664, 49.099297961581286 ] } },
{ "type": "Feature", "properties": { "ID_GEOFLA": 15, "CODE_DEPT": "15", "NOM_DEPT": "CANTAL", "CODE_CHF": "014", "NOM_CHF": "AURILLAC", "X_CHF_LIEU": 6557, "Y_CHF_LIEU": 64252, "X_CENTROID": 6739, "Y_CENTROID": 64391, "CODE_REG": "83", "NOM_REGION": "AUVERGNE" }, "geometry": { "type": "Point", "coordinates": [ 2.668998434810769, 45.051153980047083 ] } },
{ "type": "Feature", "properties": { "ID_GEOFLA": 16, "CODE_DEPT": "16", "NOM_DEPT": "CHARENTE", "CODE_CHF": "015", "NOM_CHF": "ANGOULEME", "X_CHF_LIEU": 4788, "Y_CHF_LIEU": 65095, "X_CENTROID": 4823, "Y_CENTROID": 65170, "CODE_REG": "54", "NOM_REGION": "POITOU-CHARENTES" }, "geometry": { "type": "Point", "coordinates": [ 0.202912930859266, 45.718596388092998 ] } },
{ "type": "Feature", "properties": { "ID_GEOFLA": 17, "CODE_DEPT": "17", "NOM_DEPT": "CHARENTE-MARITIME", "CODE_CHF": "300", "NOM_CHF": "LA ROCHELLE", "X_CHF_LIEU": 3797, "Y_CHF_LIEU": 65705, "X_CENTROID": 4165, "Y_CENTROID": 65256, "CODE_REG": "54", "NOM_REGION": "POITOU-CHARENTES" }, "geometry": { "type": "Point", "coordinates": [ -0.675965434430921, 45.781988835044551 ] } },
{ "type": "Feature", "properties": { "ID_GEOFLA": 18, "CODE_DEPT": "18", "NOM_DEPT": "CHER", "CODE_CHF": "033", "NOM_CHF": "BOURGES", "X_CHF_LIEU": 6541, "Y_CHF_LIEU": 66649, "X_CENTROID": 6613, "Y_CENTROID": 66628, "CODE_REG": "24", "NOM_REGION": "CENTRE" }, "geometry": { "type": "Point", "coordinates": [ 2.491115282921086, 47.065890483061935 ] } },
{ "type": "Feature", "properties": { "ID_GEOFLA": 19, "CODE_DEPT": "19", "NOM_DEPT": "CORREZE", "CODE_CHF": "272", "NOM_CHF": "TULLE", "X_CHF_LIEU": 6037, "Y_CHF_LIEU": 64636, "X_CENTROID": 6120, "Y_CENTROID": 64736, "CODE_REG": "74", "NOM_REGION": "LIMOUSIN" }, "geometry": { "type": "Point", "coordinates": [ 1.877808505369241, 45.357284137537171 ] } },
{ "type": "Feature", "properties": { "ID_GEOFLA": 20, "CODE_DEPT": "21", "NOM_DEPT": "COTE-D'OR", "CODE_CHF": "231", "NOM_CHF": "DIJON", "X_CHF_LIEU": 8542, "Y_CHF_LIEU": 66934, "X_CENTROID": 8336, "Y_CENTROID": 67042, "CODE_REG": "26", "NOM_REGION": "BOURGOGNE" }, "geometry": { "type": "Point", "coordinates": [ 4.771520261637083, 47.425614833692023 ] } },
{ "type": "Feature", "properties": { "ID_GEOFLA": 21, "CODE_DEPT": "22", "NOM_DEPT": "COTES-D'ARMOR", "CODE_CHF": "278", "NOM_CHF": "SAINT-BRIEUC", "X_CHF_LIEU": 2749, "Y_CHF_LIEU": 68392, "X_CENTROID": 2667, "Y_CENTROID": 68317, "CODE_REG": "53", "NOM_REGION": "BRETAGNE" }, "geometry": { "type": "Point", "coordinates": [ -2.864944972895132, 48.440722569247392 ] } },
{ "type": "Feature", "properties": { "ID_GEOFLA": 22, "CODE_DEPT": "23", "NOM_DEPT": "CREUSE", "CODE_CHF": "096", "NOM_CHF": "GUERET", "X_CHF_LIEU": 6126, "Y_CHF_LIEU": 65640, "X_CENTROID": 6241, "Y_CENTROID": 65549, "CODE_REG": "74", "NOM_REGION": "LIMOUSIN" }, "geometry": { "type": "Point", "coordinates": [ 2.018296706012458, 46.090539953161354 ] } },
{ "type": "Feature", "properties": { "ID_GEOFLA": 23, "CODE_DEPT": "24", "NOM_DEPT": "DORDOGNE", "CODE_CHF": "322", "NOM_CHF": "PERIGUEUX", "X_CHF_LIEU": 5207, "Y_CHF_LIEU": 64564, "X_CENTROID": 5223, "Y_CENTROID": 64475, "CODE_REG": "72", "NOM_REGION": "AQUITAINE" }, "geometry": { "type": "Point", "coordinates": [ 0.741158043692157, 45.10480576541373 ] } },
{ "type": "Feature", "properties": { "ID_GEOFLA": 24, "CODE_DEPT": "25", "NOM_DEPT": "DOUBS", "CODE_CHF": "056", "NOM_CHF": "BESANCON", "X_CHF_LIEU": 9284, "Y_CHF_LIEU": 66868, "X_CENTROID": 9545, "Y_CENTROID": 66793, "CODE_REG": "43", "NOM_REGION": "FRANCHE-COMTE" }, "geometry": { "type": "Point", "coordinates": [ 6.362707824600029, 47.165798695090793 ] } },
{ "type": "Feature", "properties": { "ID_GEOFLA": 25, "CODE_DEPT": "26", "NOM_DEPT": "DROME", "CODE_CHF": "362", "NOM_CHF": "VALENCE", "X_CHF_LIEU": 8491, "Y_CHF_LIEU": 64277, "X_CENTROID": 8717, "Y_CENTROID": 64006, "CODE_REG": "82", "NOM_REGION": "RHONE-ALPES" }, "geometry": { "type": "Point", "coordinates": [ 5.167407606225202, 44.685326540110324 ] } },
{ "type": "Feature", "properties": { "ID_GEOFLA": 26, "CODE_DEPT": "27", "NOM_DEPT": "EURE", "CODE_CHF": "229", "NOM_CHF": "EVREUX", "X_CHF_LIEU": 5648, "Y_CHF_LIEU": 68819, "X_CENTROID": 5537, "Y_CENTROID": 68922, "CODE_REG": "23", "NOM_REGION": "HAUTE-NORMANDIE" }, "geometry": { "type": "Point", "coordinates": [ 0.996327632550142, 49.113619361385808 ] } },
{ "type": "Feature", "properties": { "ID_GEOFLA": 27, "CODE_DEPT": "28", "NOM_DEPT": "EURE-ET-LOIR", "CODE_CHF": "085", "NOM_CHF": "CHARTRES", "X_CHF_LIEU": 5882, "Y_CHF_LIEU": 68173, "X_CENTROID": 5793, "Y_CENTROID": 68109, "CODE_REG": "24", "NOM_REGION": "CENTRE" }, "geometry": { "type": "Point", "coordinates": [ 1.369976149561852, 48.387986667179383 ] } },
{ "type": "Feature", "properties": { "ID_GEOFLA": 28, "CODE_DEPT": "29", "NOM_DEPT": "FINISTERE", "CODE_CHF": "232", "NOM_CHF": "QUIMPER", "X_CHF_LIEU": 1713, "Y_CHF_LIEU": 67899, "X_CENTROID": 1770, "Y_CENTROID": 68189, "CODE_REG": "53", "NOM_REGION": "BRETAGNE" }, "geometry": { "type": "Point", "coordinates": [ -4.059664759210442, 48.261955119824627 ] } },
{ "type": "Feature", "properties": { "ID_GEOFLA": 29, "CODE_DEPT": "2A", "NOM_DEPT": "CORSE-DU-SUD", "CODE_CHF": "004", "NOM_CHF": "AJACCIO", "X_CHF_LIEU": 11764, "Y_CHF_LIEU": 61089, "X_CENTROID": 11978, "Y_CENTROID": 61036, "CODE_REG": "94", "NOM_REGION": "CORSE" }, "geometry": { "type": "Point", "coordinates": [ 8.987339619161048, 41.864316301031209 ] } },
{ "type": "Feature", "properties": { "ID_GEOFLA": 30, "CODE_DEPT": "2B", "NOM_DEPT": "HAUTE-CORSE", "CODE_CHF": "033", "NOM_CHF": "BASTIA", "X_CHF_LIEU": 12285, "Y_CHF_LIEU": 61994, "X_CENTROID": 12112, "Y_CENTROID": 61638, "CODE_REG": "94", "NOM_REGION": "CORSE" }, "geometry": { "type": "Point", "coordinates": [ 9.206237063860248, 42.394735815568261 ] } },
{ "type": "Feature", "properties": { "ID_GEOFLA": 31, "CODE_DEPT": "30", "NOM_DEPT": "GARD", "CODE_CHF": "189", "NOM_CHF": "NIMES", "X_CHF_LIEU": 8093, "Y_CHF_LIEU": 63051, "X_CENTROID": 7946, "Y_CENTROID": 63223, "CODE_REG": "91", "NOM_REGION": "LANGUEDOC-ROUSSILLON" }, "geometry": { "type": "Point", "coordinates": [ 4.17992349663612, 43.993636952723094 ] } },
{ "type": "Feature", "properties": { "ID_GEOFLA": 32, "CODE_DEPT": "31", "NOM_DEPT": "HAUTE-GARONNE", "CODE_CHF": "555", "NOM_CHF": "TOULOUSE", "X_CHF_LIEU": 5741, "Y_CHF_LIEU": 62796, "X_CENTROID": 5517, "Y_CENTROID": 62527, "CODE_REG": "73", "NOM_REGION": "MIDI-PYRENEES" }, "geometry": { "type": "Point", "coordinates": [ 1.175153087138223, 43.359152601334799 ] } },
{ "type": "Feature", "properties": { "ID_GEOFLA": 33, "CODE_DEPT": "32", "NOM_DEPT": "GERS", "CODE_CHF": "013", "NOM_CHF": "AUCH", "X_CHF_LIEU": 5054, "Y_CHF_LIEU": 62858, "X_CENTROID": 4946, "Y_CENTROID": 62915, "CODE_REG": "73", "NOM_REGION": "MIDI-PYRENEES" }, "geometry": { "type": "Point", "coordinates": [ 0.452893671184962, 43.69289910445378 ] } },
{ "type": "Feature", "properties": { "ID_GEOFLA": 34, "CODE_DEPT": "33", "NOM_DEPT": "GIRONDE", "CODE_CHF": "063", "NOM_CHF": "BORDEAUX", "X_CHF_LIEU": 4172, "Y_CHF_LIEU": 64218, "X_CENTROID": 4175, "Y_CENTROID": 64204, "CODE_REG": "72", "NOM_REGION": "AQUITAINE" }, "geometry": { "type": "Point", "coordinates": [ -0.576472258543403, 44.82607637823795 ] } },
{ "type": "Feature", "properties": { "ID_GEOFLA": 35, "CODE_DEPT": "34", "NOM_DEPT": "HERAULT", "CODE_CHF": "172", "NOM_CHF": "MONTPELLIER", "X_CHF_LIEU": 7707, "Y_CHF_LIEU": 62795, "X_CENTROID": 7296, "Y_CENTROID": 62756, "CODE_REG": "91", "NOM_REGION": "LANGUEDOC-ROUSSILLON" }, "geometry": { "type": "Point", "coordinates": [ 3.368255851070488, 43.579400195718058 ] } },
{ "type": "Feature", "properties": { "ID_GEOFLA": 36, "CODE_DEPT": "35", "NOM_DEPT": "ILLE-ET-VILAINE", "CODE_CHF": "238", "NOM_CHF": "RENNES", "X_CHF_LIEU": 3518, "Y_CHF_LIEU": 67896, "X_CENTROID": 3555, "Y_CENTROID": 67934, "CODE_REG": "53", "NOM_REGION": "BRETAGNE" }, "geometry": { "type": "Point", "coordinates": [ -1.6381984352561, 48.155097553497612 ] } },
{ "type": "Feature", "properties": { "ID_GEOFLA": 37, "CODE_DEPT": "36", "NOM_DEPT": "INDRE", "CODE_CHF": "044", "NOM_CHF": "CHATEAUROUX", "X_CHF_LIEU": 6001, "Y_CHF_LIEU": 66352, "X_CENTROID": 5913, "Y_CENTROID": 66318, "CODE_REG": "24", "NOM_REGION": "CENTRE" }, "geometry": { "type": "Point", "coordinates": [ 1.576027196328275, 46.77828192776456 ] } },
{ "type": "Feature", "properties": { "ID_GEOFLA": 38, "CODE_DEPT": "37", "NOM_DEPT": "INDRE-ET-LOIRE", "CODE_CHF": "261", "NOM_CHF": "TOURS", "X_CHF_LIEU": 5256, "Y_CHF_LIEU": 67016, "X_CENTROID": 5254, "Y_CENTROID": 66867, "CODE_REG": "24", "NOM_REGION": "CENTRE" }, "geometry": { "type": "Point", "coordinates": [ 0.691062506529934, 47.258485460480216 ] } },
{ "type": "Feature", "properties": { "ID_GEOFLA": 39, "CODE_DEPT": "38", "NOM_DEPT": "ISERE", "CODE_CHF": "185", "NOM_CHF": "GRENOBLE", "X_CHF_LIEU": 9140, "Y_CHF_LIEU": 64578, "X_CENTROID": 9020, "Y_CENTROID": 64659, "CODE_REG": "82", "NOM_REGION": "RHONE-ALPES" }, "geometry": { "type": "Point", "coordinates": [ 5.574226418382888, 45.263869714202805 ] } },
{ "type": "Feature", "properties": { "ID_GEOFLA": 40, "CODE_DEPT": "39", "NOM_DEPT": "JURA", "CODE_CHF": "300", "NOM_CHF": "LONS-LE-SAUNIER", "X_CHF_LIEU": 8951, "Y_CHF_LIEU": 66225, "X_CENTROID": 9059, "Y_CENTROID": 66288, "CODE_REG": "43", "NOM_REGION": "FRANCHE-COMTE" }, "geometry": { "type": "Point", "coordinates": [ 5.69749382302269, 46.729331730091126 ] } },
{ "type": "Feature", "properties": { "ID_GEOFLA": 41, "CODE_DEPT": "40", "NOM_DEPT": "LANDES", "CODE_CHF": "192", "NOM_CHF": "MONT-DE-MARSAN", "X_CHF_LIEU": 4187, "Y_CHF_LIEU": 63163, "X_CENTROID": 3964, "Y_CENTROID": 63257, "CODE_REG": "72", "NOM_REGION": "AQUITAINE" }, "geometry": { "type": "Point", "coordinates": [ -0.783742443677854, 43.965839931813029 ] } },
{ "type": "Feature", "properties": { "ID_GEOFLA": 42, "CODE_DEPT": "41", "NOM_DEPT": "LOIR-ET-CHER", "CODE_CHF": "018", "NOM_CHF": "BLOIS", "X_CHF_LIEU": 5742, "Y_CHF_LIEU": 67227, "X_CENTROID": 5820, "Y_CENTROID": 67251, "CODE_REG": "24", "NOM_REGION": "CENTRE" }, "geometry": { "type": "Point", "coordinates": [ 1.427823435717938, 47.616851382168875 ] } },
{ "type": "Feature", "properties": { "ID_GEOFLA": 43, "CODE_DEPT": "42", "NOM_DEPT": "LOIRE", "CODE_CHF": "218", "NOM_CHF": "SAINT-ETIENNE", "X_CHF_LIEU": 8086, "Y_CHF_LIEU": 64825, "X_CENTROID": 7906, "Y_CENTROID": 65148, "CODE_REG": "82", "NOM_REGION": "RHONE-ALPES" }, "geometry": { "type": "Point", "coordinates": [ 4.164545250937222, 45.727824311383188 ] } },
{ "type": "Feature", "properties": { "ID_GEOFLA": 44, "CODE_DEPT": "43", "NOM_DEPT": "HAUTE-LOIRE", "CODE_CHF": "157", "NOM_CHF": "LE PUY-EN-VELAY", "X_CHF_LIEU": 7696, "Y_CHF_LIEU": 64386, "X_CENTROID": 7633, "Y_CENTROID": 64479, "CODE_REG": "83", "NOM_REGION": "AUVERGNE" }, "geometry": { "type": "Point", "coordinates": [ 3.806262202622387, 45.128119714145853 ] } },
{ "type": "Feature", "properties": { "ID_GEOFLA": 45, "CODE_DEPT": "44", "NOM_DEPT": "LOIRE-ATLANTIQUE", "CODE_CHF": "109", "NOM_CHF": "NANTES", "X_CHF_LIEU": 3555, "Y_CHF_LIEU": 66895, "X_CENTROID": 3468, "Y_CENTROID": 67061, "CODE_REG": "52", "NOM_REGION": "PAYS DE LA LOIRE" }, "geometry": { "type": "Point", "coordinates": [ -1.681800110503801, 47.361802227676677 ] } },
{ "type": "Feature", "properties": { "ID_GEOFLA": 46, "CODE_DEPT": "45", "NOM_DEPT": "LOIRET", "CODE_CHF": "234", "NOM_CHF": "ORLEANS", "X_CHF_LIEU": 6181, "Y_CHF_LIEU": 67563, "X_CENTROID": 6510, "Y_CENTROID": 67570, "CODE_REG": "24", "NOM_REGION": "CENTRE" }, "geometry": { "type": "Point", "coordinates": [ 2.343895435591805, 47.91188617354571 ] } },
{ "type": "Feature", "properties": { "ID_GEOFLA": 47, "CODE_DEPT": "46", "NOM_DEPT": "LOT", "CODE_CHF": "042", "NOM_CHF": "CAHORS", "X_CHF_LIEU": 5759, "Y_CHF_LIEU": 63732, "X_CENTROID": 5893, "Y_CENTROID": 63926, "CODE_REG": "73", "NOM_REGION": "MIDI-PYRENEES" }, "geometry": { "type": "Point", "coordinates": [ 1.605484392735349, 44.624520696743758 ] } },
{ "type": "Feature", "properties": { "ID_GEOFLA": 48, "CODE_DEPT": "47", "NOM_DEPT": "LOT-ET-GARONNE", "CODE_CHF": "001", "NOM_CHF": "AGEN", "X_CHF_LIEU": 5097, "Y_CHF_LIEU": 63477, "X_CENTROID": 4976, "Y_CENTROID": 63664, "CODE_REG": "72", "NOM_REGION": "AQUITAINE" }, "geometry": { "type": "Point", "coordinates": [ 0.46069272625692, 44.367803125109837 ] } },
{ "type": "Feature", "properties": { "ID_GEOFLA": 49, "CODE_DEPT": "48", "NOM_DEPT": "LOZERE", "CODE_CHF": "095", "NOM_CHF": "MENDE", "X_CHF_LIEU": 7397, "Y_CHF_LIEU": 63800, "X_CENTROID": 7397, "Y_CENTROID": 63799, "CODE_REG": "91", "NOM_REGION": "LANGUEDOC-ROUSSILLON" }, "geometry": { "type": "Point", "coordinates": [ 3.499701261589471, 44.517555342067297 ] } },
{ "type": "Feature", "properties": { "ID_GEOFLA": 50, "CODE_DEPT": "49", "NOM_DEPT": "MAINE-ET-LOIRE", "CODE_CHF": "007", "NOM_CHF": "ANGERS", "X_CHF_LIEU": 4322, "Y_CHF_LIEU": 67140, "X_CENTROID": 4312, "Y_CENTROID": 67050, "CODE_REG": "52", "NOM_REGION": "PAYS DE LA LOIRE" }, "geometry": { "type": "Point", "coordinates": [ -0.563933254181805, 47.391048325549313 ] } },
{ "type": "Feature", "properties": { "ID_GEOFLA": 51, "CODE_DEPT": "50", "NOM_DEPT": "MANCHE", "CODE_CHF": "502", "NOM_CHF": "SAINT-LO", "X_CHF_LIEU": 4014, "Y_CHF_LIEU": 68982, "X_CENTROID": 3839, "Y_CENTROID": 68953, "CODE_REG": "25", "NOM_REGION": "BASSE-NORMANDIE" }, "geometry": { "type": "Point", "coordinates": [ -1.329370500800336, 49.081681393010484 ] } },
{ "type": "Feature", "properties": { "ID_GEOFLA": 52, "CODE_DEPT": "51", "NOM_DEPT": "MARNE", "CODE_CHF": "108", "NOM_CHF": "CHALONS-EN-CHAMPAGNE", "X_CHF_LIEU": 7999, "Y_CHF_LIEU": 68738, "X_CENTROID": 7907, "Y_CENTROID": 68728, "CODE_REG": "21", "NOM_REGION": "CHAMPAGNE-ARDENNE" }, "geometry": { "type": "Point", "coordinates": [ 4.238631100072757, 48.949481094697788 ] } },
{ "type": "Feature", "properties": { "ID_GEOFLA": 53, "CODE_DEPT": "52", "NOM_DEPT": "HAUTE-MARNE", "CODE_CHF": "121", "NOM_CHF": "CHAUMONT", "X_CHF_LIEU": 8591, "Y_CHF_LIEU": 67811, "X_CENTROID": 8656, "Y_CENTROID": 67811, "CODE_REG": "21", "NOM_REGION": "CHAMPAGNE-ARDENNE" }, "geometry": { "type": "Point", "coordinates": [ 5.225359072734289, 48.110511437333102 ] } },
{ "type": "Feature", "properties": { "ID_GEOFLA": 54, "CODE_DEPT": "53", "NOM_DEPT": "MAYENNE", "CODE_CHF": "130", "NOM_CHF": "LAVAL", "X_CHF_LIEU": 4193, "Y_CHF_LIEU": 67814, "X_CENTROID": 4280, "Y_CENTROID": 67892, "CODE_REG": "52", "NOM_REGION": "PAYS DE LA LOIRE" }, "geometry": { "type": "Point", "coordinates": [ -0.657450643577364, 48.147280123256287 ] } },
{ "type": "Feature", "properties": { "ID_GEOFLA": 55, "CODE_DEPT": "54", "NOM_DEPT": "MEURTHE-ET-MOSELLE", "CODE_CHF": "395", "NOM_CHF": "NANCY", "X_CHF_LIEU": 9342, "Y_CHF_LIEU": 68483, "X_CENTROID": 9324, "Y_CENTROID": 68587, "CODE_REG": "41", "NOM_REGION": "LORRAINE" }, "geometry": { "type": "Point", "coordinates": [ 6.162189450610144, 48.788445576020152 ] } },
{ "type": "Feature", "properties": { "ID_GEOFLA": 56, "CODE_DEPT": "55", "NOM_DEPT": "MEUSE", "CODE_CHF": "029", "NOM_CHF": "BAR-LE-DUC", "X_CHF_LIEU": 8592, "Y_CHF_LIEU": 68545, "X_CENTROID": 8742, "Y_CENTROID": 68792, "CODE_REG": "41", "NOM_REGION": "LORRAINE" }, "geometry": { "type": "Point", "coordinates": [ 5.38146999209614, 48.991040342359298 ] } },
{ "type": "Feature", "properties": { "ID_GEOFLA": 57, "CODE_DEPT": "56", "NOM_DEPT": "MORBIHAN", "CODE_CHF": "260", "NOM_CHF": "VANNES", "X_CHF_LIEU": 2678, "Y_CHF_LIEU": 67440, "X_CENTROID": 2663, "Y_CENTROID": 67663, "CODE_REG": "53", "NOM_REGION": "BRETAGNE" }, "geometry": { "type": "Point", "coordinates": [ -2.810927287272129, 47.846564326631061 ] } },
{ "type": "Feature", "properties": { "ID_GEOFLA": 58, "CODE_DEPT": "57", "NOM_DEPT": "MOSELLE", "CODE_CHF": "463", "NOM_CHF": "METZ", "X_CHF_LIEU": 9318, "Y_CHF_LIEU": 68957, "X_CENTROID": 9677, "Y_CENTROID": 68881, "CODE_REG": "41", "NOM_REGION": "LORRAINE" }, "geometry": { "type": "Point", "coordinates": [ 6.661346239409023, 49.037497155368605 ] } },
{ "type": "Feature", "properties": { "ID_GEOFLA": 59, "CODE_DEPT": "58", "NOM_DEPT": "NIEVRE", "CODE_CHF": "194", "NOM_CHF": "NEVERS", "X_CHF_LIEU": 7119, "Y_CHF_LIEU": 66547, "X_CENTROID": 7382, "Y_CENTROID": 66684, "CODE_REG": "26", "NOM_REGION": "BOURGOGNE" }, "geometry": { "type": "Point", "coordinates": [ 3.504201647913196, 47.115783055258326 ] } },
{ "type": "Feature", "properties": { "ID_GEOFLA": 60, "CODE_DEPT": "59", "NOM_DEPT": "NORD", "CODE_CHF": "350", "NOM_CHF": "LILLE", "X_CHF_LIEU": 7040, "Y_CHF_LIEU": 70594, "X_CENTROID": 7157, "Y_CENTROID": 70390, "CODE_REG": "31", "NOM_REGION": "NORD-PAS-DE-CALAIS" }, "geometry": { "type": "Point", "coordinates": [ 3.21495241189711, 50.447847188582188 ] } },
{ "type": "Feature", "properties": { "ID_GEOFLA": 61, "CODE_DEPT": "60", "NOM_DEPT": "OISE", "CODE_CHF": "057", "NOM_CHF": "BEAUVAIS", "X_CHF_LIEU": 6337, "Y_CHF_LIEU": 69264, "X_CENTROID": 6582, "Y_CENTROID": 69235, "CODE_REG": "22", "NOM_REGION": "PICARDIE" }, "geometry": { "type": "Point", "coordinates": [ 2.424742191040167, 49.410069118684035 ] } },
{ "type": "Feature", "properties": { "ID_GEOFLA": 62, "CODE_DEPT": "61", "NOM_DEPT": "ORNE", "CODE_CHF": "001", "NOM_CHF": "ALENCON", "X_CHF_LIEU": 4849, "Y_CHF_LIEU": 68183, "X_CENTROID": 4884, "Y_CENTROID": 68397, "CODE_REG": "25", "NOM_REGION": "BASSE-NORMANDIE" }, "geometry": { "type": "Point", "coordinates": [ 0.128013742876043, 48.62296862829902 ] } },
{ "type": "Feature", "properties": { "ID_GEOFLA": 63, "CODE_DEPT": "62", "NOM_DEPT": "PAS-DE-CALAIS", "CODE_CHF": "041", "NOM_CHF": "ARRAS", "X_CHF_LIEU": 6843, "Y_CHF_LIEU": 70212, "X_CENTROID": 6494, "Y_CENTROID": 70442, "CODE_REG": "31", "NOM_REGION": "NORD-PAS-DE-CALAIS" }, "geometry": { "type": "Point", "coordinates": [ 2.286427686564287, 50.493699105615285 ] } },
{ "type": "Feature", "properties": { "ID_GEOFLA": 64, "CODE_DEPT": "63", "NOM_DEPT": "PUY-DE-DOME", "CODE_CHF": "113", "NOM_CHF": "CLERMONT-FERRAND", "X_CHF_LIEU": 7067, "Y_CHF_LIEU": 65200, "X_CENTROID": 7109, "Y_CENTROID": 65140, "CODE_REG": "83", "NOM_REGION": "AUVERGNE" }, "geometry": { "type": "Point", "coordinates": [ 3.140042386776064, 45.725949111861901 ] } },
{ "type": "Feature", "properties": { "ID_GEOFLA": 65, "CODE_DEPT": "64", "NOM_DEPT": "PYRENEES-ATLANTIQUES", "CODE_CHF": "445", "NOM_CHF": "PAU", "X_CHF_LIEU": 4264, "Y_CHF_LIEU": 62504, "X_CENTROID": 3945, "Y_CENTROID": 62469, "CODE_REG": "72", "NOM_REGION": "AQUITAINE" }, "geometry": { "type": "Point", "coordinates": [ -0.761326840498493, 43.256368481189213 ] } },
{ "type": "Feature", "properties": { "ID_GEOFLA": 66, "CODE_DEPT": "65", "NOM_DEPT": "HAUTES-PYRENEES", "CODE_CHF": "440", "NOM_CHF": "TARBES", "X_CHF_LIEU": 4622, "Y_CHF_LIEU": 62414, "X_CENTROID": 4689, "Y_CENTROID": 62209, "CODE_REG": "73", "NOM_REGION": "MIDI-PYRENEES" }, "geometry": { "type": "Point", "coordinates": [ 0.163831339126035, 43.053651310237981 ] } },
{ "type": "Feature", "properties": { "ID_GEOFLA": 67, "CODE_DEPT": "66", "NOM_DEPT": "PYRENEES-ORIENTALES", "CODE_CHF": "136", "NOM_CHF": "PERPIGNAN", "X_CHF_LIEU": 6913, "Y_CHF_LIEU": 61775, "X_CENTROID": 6607, "Y_CENTROID": 61668, "CODE_REG": "91", "NOM_REGION": "LANGUEDOC-ROUSSILLON" }, "geometry": { "type": "Point", "coordinates": [ 2.522598522855691, 42.599879254968158 ] } },
{ "type": "Feature", "properties": { "ID_GEOFLA": 68, "CODE_DEPT": "67", "NOM_DEPT": "BAS-RHIN", "CODE_CHF": "482", "NOM_CHF": "STRASBOURG", "X_CHF_LIEU": 10499, "Y_CHF_LIEU": 68420, "X_CENTROID": 10349, "Y_CENTROID": 68508, "CODE_REG": "42", "NOM_REGION": "ALSACE" }, "geometry": { "type": "Point", "coordinates": [ 7.5519419819742, 48.671496623177326 ] } },
{ "type": "Feature", "properties": { "ID_GEOFLA": 69, "CODE_DEPT": "68", "NOM_DEPT": "HAUT-RHIN", "CODE_CHF": "066", "NOM_CHF": "COLMAR", "X_CHF_LIEU": 10241, "Y_CHF_LIEU": 67845, "X_CENTROID": 10194, "Y_CENTROID": 67595, "CODE_REG": "42", "NOM_REGION": "ALSACE" }, "geometry": { "type": "Point", "coordinates": [ 7.274001602723292, 47.859306888664612 ] } },
{ "type": "Feature", "properties": { "ID_GEOFLA": 70, "CODE_DEPT": "69", "NOM_DEPT": "RHONE", "CODE_CHF": "381", "NOM_CHF": "LYON--1ER-ARRONDISSEMENT", "X_CHF_LIEU": 8426, "Y_CHF_LIEU": 65203, "X_CENTROID": 8273, "Y_CENTROID": 65313, "CODE_REG": "82", "NOM_REGION": "RHONE-ALPES" }, "geometry": { "type": "Point", "coordinates": [ 4.640854187518473, 45.870936732864799 ] } },
{ "type": "Feature", "properties": { "ID_GEOFLA": 71, "CODE_DEPT": "70", "NOM_DEPT": "HAUTE-SAONE", "CODE_CHF": "550", "NOM_CHF": "VESOUL", "X_CHF_LIEU": 9369, "Y_CHF_LIEU": 67293, "X_CENTROID": 9316, "Y_CENTROID": 67312, "CODE_REG": "43", "NOM_REGION": "FRANCHE-COMTE" }, "geometry": { "type": "Point", "coordinates": [ 6.08711378803688, 47.641155011165928 ] } },
{ "type": "Feature", "properties": { "ID_GEOFLA": 72, "CODE_DEPT": "71", "NOM_DEPT": "SAONE-ET-LOIRE", "CODE_CHF": "270", "NOM_CHF": "MACON", "X_CHF_LIEU": 8409, "Y_CHF_LIEU": 65800, "X_CENTROID": 8179, "Y_CENTROID": 66172, "CODE_REG": "26", "NOM_REGION": "BOURGOGNE" }, "geometry": { "type": "Point", "coordinates": [ 4.542798290940767, 46.644826733952698 ] } },
{ "type": "Feature", "properties": { "ID_GEOFLA": 73, "CODE_DEPT": "72", "NOM_DEPT": "SARTHE", "CODE_CHF": "181", "NOM_CHF": "LE MANS", "X_CHF_LIEU": 4909, "Y_CHF_LIEU": 67707, "X_CENTROID": 4928, "Y_CENTROID": 67696, "CODE_REG": "52", "NOM_REGION": "PAYS DE LA LOIRE" }, "geometry": { "type": "Point", "coordinates": [ 0.222379118043736, 47.994807784757803 ] } },
{ "type": "Feature", "properties": { "ID_GEOFLA": 74, "CODE_DEPT": "73", "NOM_DEPT": "SAVOIE", "CODE_CHF": "065", "NOM_CHF": "CHAMBERY", "X_CHF_LIEU": 9277, "Y_CHF_LIEU": 65005, "X_CENTROID": 9689, "Y_CENTROID": 64923, "CODE_REG": "82", "NOM_REGION": "RHONE-ALPES" }, "geometry": { "type": "Point", "coordinates": [ 6.442627302145842, 45.477511430385832 ] } },
{ "type": "Feature", "properties": { "ID_GEOFLA": 75, "CODE_DEPT": "74", "NOM_DEPT": "HAUTE-SAVOIE", "CODE_CHF": "010", "NOM_CHF": "ANNECY", "X_CHF_LIEU": 9426, "Y_CHF_LIEU": 65380, "X_CENTROID": 9650, "Y_CENTROID": 65540, "CODE_REG": "82", "NOM_REGION": "RHONE-ALPES" }, "geometry": { "type": "Point", "coordinates": [ 6.428403771643532, 46.034593819433738 ] } },
{ "type": "Feature", "properties": { "ID_GEOFLA": 76, "CODE_DEPT": "75", "NOM_DEPT": "PARIS", "CODE_CHF": "101", "NOM_CHF": "PARIS-1ER-ARRONDISSEMENT", "X_CHF_LIEU": 6516, "Y_CHF_LIEU": 68624, "X_CENTROID": 6517, "Y_CENTROID": 68620, "CODE_REG": "11", "NOM_REGION": "ILE-DE-FRANCE" }, "geometry": { "type": "Point", "coordinates": [ 2.342329172313209, 48.856641764986378 ] } },
{ "type": "Feature", "properties": { "ID_GEOFLA": 77, "CODE_DEPT": "76", "NOM_DEPT": "SEINE-MARITIME", "CODE_CHF": "540", "NOM_CHF": "ROUEN", "X_CHF_LIEU": 5623, "Y_CHF_LIEU": 69287, "X_CENTROID": 5574, "Y_CENTROID": 69524, "CODE_REG": "23", "NOM_REGION": "HAUTE-NORMANDIE" }, "geometry": { "type": "Point", "coordinates": [ 1.02711466289998, 49.654666563787359 ] } },
{ "type": "Feature", "properties": { "ID_GEOFLA": 78, "CODE_DEPT": "77", "NOM_DEPT": "SEINE-ET-MARNE", "CODE_CHF": "288", "NOM_CHF": "MELUN", "X_CHF_LIEU": 6748, "Y_CHF_LIEU": 68266, "X_CENTROID": 6950, "Y_CENTROID": 68362, "CODE_REG": "11", "NOM_REGION": "ILE-DE-FRANCE" }, "geometry": { "type": "Point", "coordinates": [ 2.933952486646528, 48.627464200385319 ] } },
{ "type": "Feature", "properties": { "ID_GEOFLA": 79, "CODE_DEPT": "78", "NOM_DEPT": "YVELINES", "CODE_CHF": "646", "NOM_CHF": "VERSAILLES", "X_CHF_LIEU": 6364, "Y_CHF_LIEU": 68564, "X_CENTROID": 6149, "Y_CENTROID": 68578, "CODE_REG": "11", "NOM_REGION": "ILE-DE-FRANCE" }, "geometry": { "type": "Point", "coordinates": [ 1.841414443810982, 48.815284456440317 ] } },
{ "type": "Feature", "properties": { "ID_GEOFLA": 80, "CODE_DEPT": "79", "NOM_DEPT": "DEUX-SEVRES", "CODE_CHF": "191", "NOM_CHF": "NIORT", "X_CHF_LIEU": 4337, "Y_CHF_LIEU": 65864, "X_CENTROID": 4459, "Y_CENTROID": 66114, "CODE_REG": "54", "NOM_REGION": "POITOU-CHARENTES" }, "geometry": { "type": "Point", "coordinates": [ -0.317892305758138, 46.556889399297951 ] } },
{ "type": "Feature", "properties": { "ID_GEOFLA": 81, "CODE_DEPT": "80", "NOM_DEPT": "SOMME", "CODE_CHF": "021", "NOM_CHF": "AMIENS", "X_CHF_LIEU": 6494, "Y_CHF_LIEU": 69772, "X_CENTROID": 6481, "Y_CENTROID": 69846, "CODE_REG": "22", "NOM_REGION": "PICARDIE" }, "geometry": { "type": "Point", "coordinates": [ 2.276366127151541, 49.957857737138269 ] } },
{ "type": "Feature", "properties": { "ID_GEOFLA": 82, "CODE_DEPT": "81", "NOM_DEPT": "TARN", "CODE_CHF": "004", "NOM_CHF": "ALBI", "X_CHF_LIEU": 6313, "Y_CHF_LIEU": 63147, "X_CENTROID": 6328, "Y_CENTROID": 62988, "CODE_REG": "73", "NOM_REGION": "MIDI-PYRENEES" }, "geometry": { "type": "Point", "coordinates": [ 2.165664791661468, 43.785632505079576 ] } },
{ "type": "Feature", "properties": { "ID_GEOFLA": 83, "CODE_DEPT": "82", "NOM_DEPT": "TARN-ET-GARONNE", "CODE_CHF": "121", "NOM_CHF": "MONTAUBAN", "X_CHF_LIEU": 5681, "Y_CHF_LIEU": 63256, "X_CENTROID": 5624, "Y_CENTROID": 63333, "CODE_REG": "73", "NOM_REGION": "MIDI-PYRENEES" }, "geometry": { "type": "Point", "coordinates": [ 1.282327772507679, 44.085829922484024 ] } },
{ "type": "Feature", "properties": { "ID_GEOFLA": 84, "CODE_DEPT": "83", "NOM_DEPT": "VAR", "CODE_CHF": "137", "NOM_CHF": "TOULON", "X_CHF_LIEU": 9386, "Y_CHF_LIEU": 62294, "X_CENTROID": 9626, "Y_CENTROID": 62658, "CODE_REG": "93", "NOM_REGION": "PROVENCE-ALPES-COTE D'AZUR" }, "geometry": { "type": "Point", "coordinates": [ 6.244701050322408, 43.441566342272843 ] } },
{ "type": "Feature", "properties": { "ID_GEOFLA": 85, "CODE_DEPT": "84", "NOM_DEPT": "VAUCLUSE", "CODE_CHF": "007", "NOM_CHF": "AVIGNON", "X_CHF_LIEU": 8451, "Y_CHF_LIEU": 63182, "X_CENTROID": 8753, "Y_CENTROID": 63240, "CODE_REG": "93", "NOM_REGION": "PROVENCE-ALPES-COTE D'AZUR" }, "geometry": { "type": "Point", "coordinates": [ 5.177163558363058, 44.00718355411523 ] } },
{ "type": "Feature", "properties": { "ID_GEOFLA": 86, "CODE_DEPT": "85", "NOM_DEPT": "VENDEE", "CODE_CHF": "191", "NOM_CHF": "LA ROCHE-SUR-YON", "X_CHF_LIEU": 3616, "Y_CHF_LIEU": 66283, "X_CENTROID": 3724, "Y_CENTROID": 66280, "CODE_REG": "52", "NOM_REGION": "PAYS DE LA LOIRE" }, "geometry": { "type": "Point", "coordinates": [ -1.29854671896978, 46.674806560172861 ] } },
{ "type": "Feature", "properties": { "ID_GEOFLA": 87, "CODE_DEPT": "86", "NOM_DEPT": "VIENNE", "CODE_CHF": "194", "NOM_CHF": "POITIERS", "X_CHF_LIEU": 4959, "Y_CHF_LIEU": 66123, "X_CENTROID": 5054, "Y_CENTROID": 66102, "CODE_REG": "54", "NOM_REGION": "POITOU-CHARENTES" }, "geometry": { "type": "Point", "coordinates": [ 0.459499954348268, 46.564824997006539 ] } },
{ "type": "Feature", "properties": { "ID_GEOFLA": 88, "CODE_DEPT": "87", "NOM_DEPT": "HAUTE-VIENNE", "CODE_CHF": "085", "NOM_CHF": "LIMOGES", "X_CHF_LIEU": 5650, "Y_CHF_LIEU": 65275, "X_CENTROID": 5631, "Y_CENTROID": 65339, "CODE_REG": "74", "NOM_REGION": "LIMOUSIN" }, "geometry": { "type": "Point", "coordinates": [ 1.234783149992845, 45.892408809940868 ] } },
{ "type": "Feature", "properties": { "ID_GEOFLA": 89, "CODE_DEPT": "88", "NOM_DEPT": "VOSGES", "CODE_CHF": "160", "NOM_CHF": "EPINAL", "X_CHF_LIEU": 9565, "Y_CHF_LIEU": 67915, "X_CENTROID": 9511, "Y_CENTROID": 67938, "CODE_REG": "41", "NOM_REGION": "LORRAINE" }, "geometry": { "type": "Point", "coordinates": [ 6.380159163697988, 48.196185405794253 ] } },
{ "type": "Feature", "properties": { "ID_GEOFLA": 90, "CODE_DEPT": "89", "NOM_DEPT": "YONNE", "CODE_CHF": "024", "NOM_CHF": "AUXERRE", "X_CHF_LIEU": 7424, "Y_CHF_LIEU": 67442, "X_CENTROID": 7422, "Y_CENTROID": 67489, "CODE_REG": "26", "NOM_REGION": "BOURGOGNE" }, "geometry": { "type": "Point", "coordinates": [ 3.563166871289349, 47.840461148020928 ] } },
{ "type": "Feature", "properties": { "ID_GEOFLA": 91, "CODE_DEPT": "90", "NOM_DEPT": "TERRITOIRE DE BELFORT", "CODE_CHF": "010", "NOM_CHF": "BELFORT", "X_CHF_LIEU": 9889, "Y_CHF_LIEU": 67337, "X_CENTROID": 9949, "Y_CENTROID": 67330, "CODE_REG": "43", "NOM_REGION": "FRANCHE-COMTE" }, "geometry": { "type": "Point", "coordinates": [ 6.928461882918491, 47.631810092488969 ] } },
{ "type": "Feature", "properties": { "ID_GEOFLA": 92, "CODE_DEPT": "91", "NOM_DEPT": "ESSONNE", "CODE_CHF": "228", "NOM_CHF": "EVRY", "X_CHF_LIEU": 6590, "Y_CHF_LIEU": 68372, "X_CENTROID": 6441, "Y_CENTROID": 68249, "CODE_REG": "11", "NOM_REGION": "ILE-DE-FRANCE" }, "geometry": { "type": "Point", "coordinates": [ 2.243346523371065, 48.522363575284857 ] } },
{ "type": "Feature", "properties": { "ID_GEOFLA": 93, "CODE_DEPT": "92", "NOM_DEPT": "HAUTS-DE-SEINE", "CODE_CHF": "050", "NOM_CHF": "NANTERRE", "X_CHF_LIEU": 6416, "Y_CHF_LIEU": 68659, "X_CENTROID": 6458, "Y_CENTROID": 68556, "CODE_REG": "11", "NOM_REGION": "ILE-DE-FRANCE" }, "geometry": { "type": "Point", "coordinates": [ 2.245762716521678, 48.847311853203642 ] } },
{ "type": "Feature", "properties": { "ID_GEOFLA": 94, "CODE_DEPT": "93", "NOM_DEPT": "SEINE-SAINT-DENIS", "CODE_CHF": "008", "NOM_CHF": "BOBIGNY", "X_CHF_LIEU": 6588, "Y_CHF_LIEU": 68679, "X_CENTROID": 6617, "Y_CENTROID": 68687, "CODE_REG": "11", "NOM_REGION": "ILE-DE-FRANCE" }, "geometry": { "type": "Point", "coordinates": [ 2.477957959447785, 48.917509226524281 ] } },
{ "type": "Feature", "properties": { "ID_GEOFLA": 95, "CODE_DEPT": "94", "NOM_DEPT": "VAL-DE-MARNE", "CODE_CHF": "028", "NOM_CHF": "CRETEIL", "X_CHF_LIEU": 6604, "Y_CHF_LIEU": 68546, "X_CENTROID": 6609, "Y_CENTROID": 68531, "CODE_REG": "11", "NOM_REGION": "ILE-DE-FRANCE" }, "geometry": { "type": "Point", "coordinates": [ 2.468790928174967, 48.77740009435653 ] } },
{ "type": "Feature", "properties": { "ID_GEOFLA": 96, "CODE_DEPT": "95", "NOM_DEPT": "VAL-D'OISE", "CODE_CHF": "500", "NOM_CHF": "PONTOISE", "X_CHF_LIEU": 6342, "Y_CHF_LIEU": 68838, "X_CENTROID": 6365, "Y_CENTROID": 68873, "CODE_REG": "11", "NOM_REGION": "ILE-DE-FRANCE" }, "geometry": { "type": "Point", "coordinates": [ 2.130915148636474, 49.08263406149544 ] } }
]
}
